{"meta": {"code": 200, "requestId": "6084457ebdbb3861cf578288"}, "notifications": [{"type": "notificationTray", "item": {"unreadCount": 0}}], "response": {"venues": [{"id": "5b01d8d342d8c2002cd80477", "name": "Padaria Zona Sul", "location": {"address": "Supermercado Zona Sul", "lat": -22.98579, "lng": -43.197138, "labeledLatLngs": [{"label": "display", "lat": -22.98579, "lng": -43.197138}], "distance": 1708, "postalCode": "22420-041", "cc": "BR", "city": "Rio de Janeiro", "state": "RJ", "country": "Brasil", "formattedAddress": ["Supermercado Zona Sul", "Rio de Janeiro, RJ", "22420-041"]}, "categories": [{"id": "4bf58dd8d48988d16a941735", "name": "Bakery", "pluralName": "Bakeries", "shortName": "Bakery", "icon": {"prefix": "https://ss3.4sqi.net/img/categories_v2/food/bakery_", "suffix": ".png"}, "primary": true}], "referralId": "v-1619281278", "hasPerk": false}, {"id": "4cd06f5f7561236af0422cf3", "name": "Padaria Conde de Iraj\u00e1", "location": {"address": "R. Cde. de Iraj\u00e1, 592", "lat": -22.957674527477078, "lng": -43.19444924421578, "labeledLatLngs": [{"label": "display", "lat": -22.957674527477078, "lng": -43.19444924421578}], "distance": 1556, "postalCode": "22271-020", "cc": "BR", "city": "Rio de Janeiro", "state": "RJ", "country": "Brasil", "formattedAddress": ["R. Cde. de Iraj\u00e1, 592", "Rio de Janeiro, RJ", "22271-020"]}, "categories": [{"id": "4bf58dd8d48988d16a941735", "name": "Bakery", "pluralName": "Bakeries", "shortName": "Bakery", "icon": {"prefix": "https://ss3.4sqi.net/img/categories_v2/food/bakery_", "suffix": ".png"}, "primary": true}], "referralId": "v-1619281278", "hasPerk": false}, {"id": "4d9632ff2bd6f04db1ff3050", "name": "Padaria Santa Margarida", "location": {"address": "R. Siqueira Campos, 180", "lat": -22.965591279116705, "lng": -43.18836681304436, "labeledLatLngs": [{"label": "display", "lat": -22.965591279116705, "lng": -43.18836681304436}], "distance": 1323, "postalCode": "22031-072", "cc": "BR", "city": "Rio de Janeiro", "state": "RJ", "country": "Brasil", "formattedAddress": ["R. Siqueira Campos, 180", "Rio de Janeiro, RJ", "22031-072"]}, "categories": [{"id": "4bf58dd8d48988d16a941735", "name": "Bakery", "pluralName": "Bakeries", "shortName": "Bakery", "icon": {"prefix": "https://ss3.4sqi.net/img/categories_v2/food/bakery_", "suffix": ".png"}, "primary": true}], "referralId": "v-1619281278", "hasPerk": false}, {"id": "589b7f835a5869275928fa57", "name": "Anita Padaria e Confeitaria", "location": {"address": "R. Anita Garibaldi, 83, Lj. 4", "lat": -22.968382, "lng": -43.188747, "labeledLatLngs": [{"label": "display", "lat": -22.968382, "lng": -43.188747}], "distance": 1184, "postalCode": "22041-080", "cc": "BR", "city": "Rio de Janeiro", "state": "RJ", "country": "Brasil", "formattedAddress": ["R. Anita Garibaldi, 83, Lj. 4", "Rio de Janeiro, RJ", "22041-080"]}, "categories": [{"id": "4bf58dd8d48988d16a941735", "name": "Bakery", "pluralName": "Bakeries", "shortName": "Bakery", "icon": {"prefix": "https://ss3.4sqi.net/img/categories_v2/food/bakery_", "suffix": ".png"}, "primary": true}], "referralId": "v-1619281278", "hasPerk": false}, {"id": "58f7bd731213846655d23770", "name": "Padaria Zona Sul", "location": {"address": "Supermercado Zona Sul", "lat": -22.984498, "lng": -43.198801, "labeledLatLngs": [{"label": "display", "lat": -22.984498, "lng": -43.198801}], "distance": 1543, "postalCode": "22410-000", "cc": "BR", "city": "Rio de Janeiro", "state": "RJ", "country": "Brasil", "formattedAddress": ["Supermercado Zona Sul", "Rio de Janeiro, RJ", "22410-000"]}, "categories": [{"id": "4bf58dd8d48988d16a941735", "name": "Bakery", "pluralName": "Bakeries", "shortName": "Bakery", "icon": {"prefix": "https://ss3.4sqi.net/img/categories_v2/food/bakery_", "suffix": ".png"}, "primary": true}], "referralId": "v-1619281278", "hasPerk": false}, {"id": "4d2cdfe379bc721e9d5ae6ee", "name": "Padaria VIP Rio", "location": {"address": "Av. Prado Junior, 280", "lat": -22.964111983206855, "lng": -43.1749078145638, "labeledLatLngs": [{"label": "display", "lat": -22.964111983206855, "lng": -43.1749078145638}], "distance": 2676, "postalCode": "22011-040", "cc": "BR", "city": "Rio de Janeiro", "state": "RJ", "country": "Brasil", "formattedAddress": ["Av. Prado Junior, 280", "Rio de Janeiro, RJ", "22011-040"]}, "categories": [{"id": "4bf58dd8d48988d16a941735", "name": "Bakery", "pluralName": "Bakeries", "shortName": "Bakery", "icon": {"prefix": "https://ss3.4sqi.net/img/categories_v2/food/bakery_", "suffix": ".png"}, "primary": true}], "referralId": "v-1619281278", "hasPerk": false}, {"id": "4b355056f964a5202a2c25e3", "name": "Padaria Rio-Lisboa", "location": {"address": "Av. Ataulfo de Paiva, 1040", "crossStreet": "R. Gal. Artigas", "lat": -22.985088461981594, "lng": -43.22569630148612, "labeledLatLngs": [{"label": "display", "lat": -22.985088461981594, "lng": -43.22569630148612}], "distance": 3080, "postalCode": "22440-035", "cc": "BR", "neighborhood": "Leblon", "city": "Rio de Janeiro", "state": "RJ", "country": "Brasil", "formattedAddress": ["Av. Ataulfo de Paiva, 1040 (R. Gal. Artigas)", "Rio de Janeiro, RJ", "22440-035"]}, "categories": [{"id": "4bf58dd8d48988d16a941735", "name": "Bakery", "pluralName": "Bakeries", "shortName": "Bakery", "icon": {"prefix": "https://ss3.4sqi.net/img/categories_v2/food/bakery_", "suffix": ".png"}, "primary": true}], "referralId": "v-1619281278", "hasPerk": false}, {"id": "4dfc93c0483b96a3aaa63207", "name": "Padaria e Confeitaria La Copa", "location": {"address": "R. Siqueira Campos, 23", "lat": -22.96998310504083, "lng": -43.183970964045926, "labeledLatLngs": [{"label": "display", "lat": -22.96998310504083, "lng": -43.183970964045926}], "distance": 1648, "postalCode": "22031-072", "cc": "BR", "city": "Rio de Janeiro", "state": "RJ", "country": "Brasil", "formattedAddress": ["R. Siqueira Campos, 23", "Rio de Janeiro, RJ", "22031-072"]}, "categories": [{"id": "4bf58dd8d48988d16a941735", "name": "Bakery", "pluralName": "Bakeries", "shortName": "Bakery", "icon": {"prefix": "https://ss3.4sqi.net/img/categories_v2/food/bakery_", "suffix": ".png"}, "primary": true}], "referralId": "v-1619281278", "hasPerk": false}, {"id": "4b645ff7f964a52034ae2ae3", "name": "Padaria G\u00e1vea Shop", "location": {"address": "R. Mq. de S\u00e3o Vicente", "crossStreet": "R. Prof. Manuel Ferreira", "lat": -22.97633981063145, "lng": -43.229076963764264, "labeledLatLngs": [{"label": "display", "lat": -22.97633981063145, "lng": -43.229076963764264}], "distance": 3042, "postalCode": "22451-040", "cc": "BR", "city": "Rio de Janeiro", "state": "RJ", "country": "Brasil", "formattedAddress": ["R. Mq. de S\u00e3o Vicente (R. Prof. Manuel Ferreira)", "Rio de Janeiro, RJ", "22451-040"]}, "categories": [{"id": "4bf58dd8d48988d16a941735", "name": "Bakery", "pluralName": "Bakeries", "shortName": "Bakery", "icon": {"prefix": "https://ss3.4sqi.net/img/categories_v2/food/bakery_", "suffix": ".png"}, "primary": true}], "referralId": "v-1619281278", "hasPerk": false}, {"id": "4c23d62db7b8a5933e813be8", "name": "Padaria Tr\u00eas Poderes", "location": {"address": "R. Bol\u00edvar, 150", "lat": -22.975692634258397, "lng": -43.19265473623304, "labeledLatLngs": [{"label": "display", "lat": -22.975692634258397, "lng": -43.19265473623304}], "distance": 939, "postalCode": "22061-020", "cc": "BR", "city": "Rio de Janeiro", "state": "RJ", "country": "Brasil", "formattedAddress": ["R. Bol\u00edvar, 150", "Rio de Janeiro, RJ", "22061-020"]}, "categories": [{"id": "4bf58dd8d48988d16a941735", "name": "Bakery", "pluralName": "Bakeries", "shortName": "Bakery", "icon": {"prefix": "https://ss3.4sqi.net/img/categories_v2/food/bakery_", "suffix": ".png"}, "primary": true}], "referralId": "v-1619281278", "hasPerk": false}, {"id": "4e355b9352b17fb1c606be90", "name": "Padaria e Confeitaria Duque de Caxias", "location": {"address": "R. Gustavo Sampaio, 508", "lat": -22.962860510569893, "lng": -43.170084292956574, "labeledLatLngs": [{"label": "display", "lat": -22.962860510569893, "lng": -43.170084292956574}], "distance": 3190, "postalCode": "22010-010", "cc": "BR", "city": "Rio de Janeiro", "state": "RJ", "country": "Brasil", "formattedAddress": ["R. Gustavo Sampaio, 508", "Rio de Janeiro, RJ", "22010-010"]}, "categories": [{"id": "4bf58dd8d48988d16a941735", "name": "Bakery", "pluralName": "Bakeries", "shortName": "Bakery", "icon": {"prefix": "https://ss3.4sqi.net/img/categories_v2/food/bakery_", "suffix": ".png"}, "primary": true}], "referralId": "v-1619281278", "hasPerk": false}, {"id": "4bfbb6f065fbc9b618b0916c", "name": "Padaria Santa Marta", "location": {"address": "R. Carlos Vasconcelos, 156", "lat": -22.92414814499764, "lng": -43.23156073779654, "labeledLatLngs": [{"label": "display", "lat": -22.92414814499764, "lng": -43.23156073779654}], "distance": 6105, "postalCode": "20521-050", "cc": "BR", "city": "Rio de Janeiro", "state": "RJ", "country": "Brasil", "formattedAddress": ["R. Carlos Vasconcelos, 156", "Rio de Janeiro, RJ", "20521-050"]}, "categories": [{"id": "4bf58dd8d48988d16a941735", "name": "Bakery", "pluralName": "Bakeries", "shortName": "Bakery", "icon": {"prefix": "https://ss3.4sqi.net/img/categories_v2/food/bakery_", "suffix": ".png"}, "primary": true}], "referralId": "v-1619281278", "hasPerk": false}, {"id": "4e58ee04d22dfba6f46c10ce", "name": "Padaria Santa Marta", "location": {"address": "R. Nascimento Silva, 62", "lat": -22.978891279020267, "lng": -43.200889693857235, "labeledLatLngs": [{"label": "display", "lat": -22.978891279020267, "lng": -43.200889693857235}], "distance": 918, "cc": "BR", "city": "Rio de Janeiro", "state": "RJ", "country": "Brasil", "formattedAddress": ["R. Nascimento Silva, 62", "Rio de Janeiro, RJ"]}, "categories": [{"id": "4bf58dd8d48988d16a941735", "name": "Bakery", "pluralName": "Bakeries", "shortName": "Bakery", "icon": {"prefix": "https://ss3.4sqi.net/img/categories_v2/food/bakery_", "suffix": ".png"}, "primary": true}], "referralId": "v-1619281278", "hasPerk": false}, {"id": "5687acbc498e546e38ed6dd7", "name": "Padaria Santa Marta", "location": {"lat": -22.97459106159569, "lng": -43.189572894524964, "labeledLatLngs": [{"label": "display", "lat": -22.97459106159569, "lng": -43.189572894524964}], "distance": 1157, "cc": "BR", "country": "Brasil"}, "categories": [{"id": "4bf58dd8d48988d146941735", "name": "Deli / Bodega", "pluralName": "Delis / Bodegas", "shortName": "Deli / Bodega", "icon": {"prefix": "https://ss3.4sqi.net/img/categories_v2/food/deli_", "suffix": ".png"}, "primary": true}], "referralId": "v-1619281278", "hasPerk": false}, {"id": "535a47d7498ebdff16e6b1ac", "name": "Padaria Zona Sul", "location": {"address": "Supermercado Zona Sul", "lat": -22.9395082359333, "lng": -43.1784330256432, "labeledLatLngs": [{"label": "display", "lat": -22.9395082359333, "lng": -43.1784330256432}], "distance": 4116, "postalCode": "22230-060", "cc": "BR", "city": "Rio de Janeiro", "state": "RJ", "country": "Brasil", "formattedAddress": ["Supermercado Zona Sul", "Rio de Janeiro, RJ", "22230-060"]}, "categories": [{"id": "4bf58dd8d48988d16a941735", "name": "Bakery", "pluralName": "Bakeries", "shortName": "Bakery", "icon": {"prefix": "https://ss3.4sqi.net/img/categories_v2/food/bakery_", "suffix": ".png"}, "primary": true}], "referralId": "v-1619281278", "hasPerk": false}, {"id": "538b71fd498eff32834b0d1f", "name": "Padaria e Confeitaria Cantagalo", "location": {"address": "Rua Miguel Lemos, 99 Loja D", "lat": -22.97687084319872, "lng": -43.191535172360254, "labeledLatLngs": [{"label": "display", "lat": -22.97687084319872, "lng": -43.191535172360254}], "distance": 1110, "cc": "BR", "country": "Brasil", "formattedAddress": ["Rua Miguel Lemos, 99 Loja D"]}, "categories": [{"id": "4bf58dd8d48988d16a941735", "name": "Bakery", "pluralName": "Bakeries", "shortName": "Bakery", "icon": {"prefix": "https://ss3.4sqi.net/img/categories_v2/food/bakery_", "suffix": ".png"}, "primary": true}], "referralId": "v-1619281278", "hasPerk": false}, {"id": "4f623975e4b038d69d1bd161", "name": "Padaria", "location": {"address": "Rua D\u00eddimo", "lat": -22.985462025519713, "lng": -43.19019704902267, "labeledLatLngs": [{"label": "display", "lat": -22.985462025519713, "lng": -43.19019704902267}], "distance": 1929, "cc": "BR", "city": "Centro", "state": "RJ", "country": "Brasil", "formattedAddress": ["Rua D\u00eddimo", "Centro, RJ"]}, "categories": [{"id": "4bf58dd8d48988d1cb941735", "name": "Food Truck", "pluralName": "Food Trucks", "shortName": "Food Truck", "icon": {"prefix": "https://ss3.4sqi.net/img/categories_v2/food/streetfood_", "suffix": ".png"}, "primary": true}], "referralId": "v-1619281278", "hasPerk": false}, {"id": "520ef54f0493afc0be877003", "name": "Padaria Sabor Da Cidade", "location": {"address": "Orla Copacabana", "lat": -22.972894893738882, "lng": -43.18581819534302, "labeledLatLngs": [{"label": "display", "lat": -22.972894893738882, "lng": -43.18581819534302}], "distance": 1477, "postalCode": "28999-999", "cc": "BR", "city": "Rio de Janeiro", "state": "RJ", "country": "Brasil", "formattedAddress": ["Orla Copacabana", "Rio de Janeiro, RJ", "28999-999"]}, "categories": [{"id": "4bf58dd8d48988d16a941735", "name": "Bakery", "pluralName": "Bakeries", "shortName": "Bakery", "icon": {"prefix": "https://ss3.4sqi.net/img/categories_v2/food/bakery_", "suffix": ".png"}, "primary": true}], "referralId": "v-1619281278", "hasPerk": false}, {"id": "4bee8d11e8c3c928b1ca9892", "name": "Padaria Panorama", "location": {"lat": -22.982317172172735, "lng": -43.200604976604374, "labeledLatLngs": [{"label": "display", "lat": -22.982317172172735, "lng": -43.200604976604374}], "distance": 1296, "cc": "BR", "city": "Rio de Janeiro", "state": "RJ", "country": "Brasil", "formattedAddress": ["Rio de Janeiro, RJ"]}, "categories": [{"id": "4bf58dd8d48988d16a941735", "name": "Bakery", "pluralName": "Bakeries", "shortName": "Bakery", "icon": {"prefix": "https://ss3.4sqi.net/img/categories_v2/food/bakery_", "suffix": ".png"}, "primary": true}], "referralId": "v-1619281278", "hasPerk": false}, {"id": "4f63c8b5e4b036e3e7600ca5", "name": "Padaria Nova Viriato Gourmet", "location": {"address": "R Bento Lisboa 72", "crossStreet": "R. Tavares Bastos", "lat": -22.927158369923017, "lng": -43.17937148437405, "labeledLatLngs": [{"label": "display", "lat": -22.927158369923017, "lng": -43.17937148437405}], "distance": 5287, "postalCode": "22221-011", "cc": "BR", "city": "Rio de Janeiro", "state": "RJ", "country": "Brasil", "formattedAddress": ["R Bento Lisboa 72 (R. Tavares Bastos)", "Rio de Janeiro, RJ", "22221-011"]}, "categories": [{"id": "4bf58dd8d48988d16a941735", "name": "Bakery", "pluralName": "Bakeries", "shortName": "Bakery", "icon": {"prefix": "https://ss3.4sqi.net/img/categories_v2/food/bakery_", "suffix": ".png"}, "primary": true}], "referralId": "v-1619281278", "hasPerk": false}, {"id": "4fe0ff24e4b05fd6ae8a22ab", "name": "Padaria do lado do Fornalha", "location": {"lat": -22.968142, "lng": -43.185445, "labeledLatLngs": [{"label": "display", "lat": -22.968142, "lng": -43.185445}], "distance": 1521, "cc": "BR", "country": "Brasil"}, "categories": [{"id": "4bf58dd8d48988d16a941735", "name": "Bakery", "pluralName": "Bakeries", "shortName": "Bakery", "icon": {"prefix": "https://ss3.4sqi.net/img/categories_v2/food/bakery_", "suffix": ".png"}, "primary": true}], "referralId": "v-1619281278", "hasPerk": false}, {"id": "50afd4c8e4b0ed6fa8915064", "name": "Padaria Mirante", "location": {"lat": -22.96468358147127, "lng": -43.19328089994752, "labeledLatLngs": [{"label": "display", "lat": -22.96468358147127, "lng": -43.19328089994752}], "distance": 961, "cc": "BR", "country": "Brasil"}, "categories": [{"id": "4bf58dd8d48988d116941735", "name": "Bar", "pluralName": "Bars", "shortName": "Bar", "icon": {"prefix": "https://ss3.4sqi.net/img/categories_v2/nightlife/pub_", "suffix": ".png"}, "primary": true}], "referralId": "v-1619281278", "hasPerk": false}, {"id": "59f78fe128122f14f9e0bfc7", "name": "Padaria Do Segato", "location": {"lat": -22.966559309339093, "lng": -43.1891223060749, "labeledLatLngs": [{"label": "display", "lat": -22.966559309339093, "lng": -43.1891223060749}], "distance": 1208, "postalCode": "22031-011", "cc": "BR", "city": "Rio de Janeiro", "state": "RJ", "country": "Brasil", "formattedAddress": ["Rio de Janeiro, RJ", "22031-011"]}, "categories": [{"id": "4bf58dd8d48988d16a941735", "name": "Bakery", "pluralName": "Bakeries", "shortName": "Bakery", "icon": {"prefix": "https://ss3.4sqi.net/img/categories_v2/food/bakery_", "suffix": ".png"}, "primary": true}], "referralId": "v-1619281278", "hasPerk": false}, {"id": "57fa7da1cd10f930485b6bb3", "name": "Padaria Lopes", "location": {"lat": -22.984394, "lng": -43.190439, "labeledLatLngs": [{"label": "display", "lat": -22.984394, "lng": -43.190439}], "distance": 1815, "cc": "BR", "country": "Brasil"}, "categories": [{"id": "4bf58dd8d48988d16a941735", "name": "Bakery", "pluralName": "Bakeries", "shortName": "Bakery", "icon": {"prefix": "https://ss3.4sqi.net/img/categories_v2/food/bakery_", "suffix": ".png"}, "primary": true}], "referralId": "v-1619281278", "hasPerk": false}, {"id": "4f108058e4b0865b068cafc2", "name": "padaria da Miguel", "location": {"lat": -22.97831950855561, "lng": -43.18971474849935, "labeledLatLngs": [{"label": "display", "lat": -22.97831950855561, "lng": -43.18971474849935}], "distance": 1357, "cc": "BR", "country": "Brasil"}, "categories": [], "referralId": "v-1619281278", "hasPerk": false}, {"id": "50472b3ce4b0511ad6ec8f07", "name": "Padaria Jofapi", "location": {"address": "Rua Itapiru", "crossStreet": "Rua Navarro", "lat": -22.924389635344372, "lng": -43.19712369875007, "labeledLatLngs": [{"label": "display", "lat": -22.924389635344372, "lng": -43.19712369875007}], "distance": 5161, "cc": "BR", "city": "Rio de Janeiro", "state": "RJ", "country": "Brasil", "formattedAddress": ["Rua Itapiru (Rua Navarro)", "Rio de Janeiro, RJ"]}, "categories": [{"id": "4bf58dd8d48988d16a941735", "name": "Bakery", "pluralName": "Bakeries", "shortName": "Bakery", "icon": {"prefix": "https://ss3.4sqi.net/img/categories_v2/food/bakery_", "suffix": ".png"}, "primary": true}], "referralId": "v-1619281278", "hasPerk": false}, {"id": "4ee9201530f83ed82bb18d82", "name": "Padaria Marata\u00edzes", "location": {"address": "Rua Julio de Castilhos", "crossStreet": "Rua Rua Conselheiro Lafayette", "lat": -22.980983887777093, "lng": -43.19125620258486, "labeledLatLngs": [{"label": "display", "lat": -22.980983887777093, "lng": -43.19125620258486}], "distance": 1457, "cc": "BR", "city": "Rio de Janeiro", "state": "RJ", "country": "Brasil", "formattedAddress": ["Rua Julio de Castilhos (Rua Rua Conselheiro Lafayette)", "Rio de Janeiro, RJ"]}, "categories": [{"id": "4bf58dd8d48988d16a941735", "name": "Bakery", "pluralName": "Bakeries", "shortName": "Bakery", "icon": {"prefix": "https://ss3.4sqi.net/img/categories_v2/food/bakery_", "suffix": ".png"}, "primary": true}], "referralId": "v-1619281278", "hasPerk": false}, {"id": "5581e22f498ebf2e88a69f3b", "name": "A Padaria - Caf\u00e9 Et March\u00e9", "location": {"address": "R. Maria Ang\u00e9lica, 197", "lat": -22.960928044600024, "lng": -43.20790606021546, "labeledLatLngs": [{"label": "display", "lat": -22.960928044600024, "lng": -43.20790606021546}], "distance": 1352, "cc": "BR", "city": "Rio de Janeiro", "state": "RJ", "country": "Brasil", "formattedAddress": ["R. Maria Ang\u00e9lica, 197", "Rio de Janeiro, RJ"]}, "categories": [{"id": "4bf58dd8d48988d143941735", "name": "Breakfast Spot", "pluralName": "Breakfast Spots", "shortName": "Breakfast", "icon": {"prefix": "https://ss3.4sqi.net/img/categories_v2/food/breakfast_", "suffix": ".png"}, "primary": true}], "referralId": "v-1619281278", "hasPerk": false}, {"id": "543a93a3498ef974a5420094", "name": "Padaria e Confeitaria P\u00e3o e Companhia", "location": {"address": "R. Visc. de Piraj\u00e1, 30", "lat": -22.98459645416852, "lng": -43.19615449795422, "labeledLatLngs": [{"label": "display", "lat": -22.98459645416852, "lng": -43.19615449795422}], "distance": 1599, "cc": "BR", "city": "Rio de Janeiro", "state": "RJ", "country": "Brasil", "formattedAddress": ["R. Visc. de Piraj\u00e1, 30", "Rio de Janeiro, RJ"]}, "categories": [{"id": "4bf58dd8d48988d16a941735", "name": "Bakery", "pluralName": "Bakeries", "shortName": "Bakery", "icon": {"prefix": "https://ss3.4sqi.net/img/categories_v2/food/bakery_", "suffix": ".png"}, "primary": true}], "referralId": "v-1619281278", "hasPerk": false}, {"id": "515365a0e4b058ca2fda545d", "name": "Padaria Santa Marta", "location": {"address": "R. Cde. de Bonfim, 25", "lat": -22.922618614137157, "lng": -43.22148611750208, "labeledLatLngs": [{"label": "display", "lat": -22.922618614137157, "lng": -43.22148611750208}], "distance": 5784, "postalCode": "20520-050", "cc": "BR", "city": "Rio de Janeiro", "state": "RJ", "country": "Brasil", "formattedAddress": ["R. Cde. de Bonfim, 25", "Rio de Janeiro, RJ", "20520-050"]}, "categories": [{"id": "4bf58dd8d48988d16a941735", "name": "Bakery", "pluralName": "Bakeries", "shortName": "Bakery", "icon": {"prefix": "https://ss3.4sqi.net/img/categories_v2/food/bakery_", "suffix": ".png"}, "primary": true}], "referralId": "v-1619281278", "hasPerk": false}, {"id": "4c5574f3479fc928d072db94", "name": "Padaria Odetinha", "location": {"address": "Rua Francisco S\u00e1, 89", "crossStreet": "Bulh\u00f5es de Carvalho", "lat": -22.983214847920173, "lng": -43.193833067967084, "labeledLatLngs": [{"label": "display", "lat": -22.983214847920173, "lng": -43.193833067967084}], "distance": 1533, "postalCode": "22080-010", "cc": "BR", "city": "Rio de Janeiro", "state": "RJ", "country": "Brasil", "formattedAddress": ["Rua Francisco S\u00e1, 89 (Bulh\u00f5es de Carvalho)", "Rio de Janeiro, RJ", "22080-010"]}, "categories": [{"id": "4bf58dd8d48988d16a941735", "name": "Bakery", "pluralName": "Bakeries", "shortName": "Bakery", "icon": {"prefix": "https://ss3.4sqi.net/img/categories_v2/food/bakery_", "suffix": ".png"}, "primary": true}], "referralId": "v-1619281278", "hasPerk": false}, {"id": "4f91e4dce4b07f1ded18b175", "name": "Padaria & A\u00e7ougue", "location": {"address": "Rua Teixeira de Melo", "lat": -22.98492881558955, "lng": -43.198641287867375, "labeledLatLngs": [{"label": "display", "lat": -22.98492881558955, "lng": -43.198641287867375}], "distance": 1592, "cc": "BR", "country": "Brasil", "formattedAddress": ["Rua Teixeira de Melo"]}, "categories": [{"id": "4bf58dd8d48988d1cc941735", "name": "Steakhouse", "pluralName": "Steakhouses", "shortName": "Steakhouse", "icon": {"prefix": "https://ss3.4sqi.net/img/categories_v2/food/steakhouse_", "suffix": ".png"}, "primary": true}], "referralId": "v-1619281278", "hasPerk": false}, {"id": "4ef914536c25c411ecaf0ac1", "name": "Padaria princesinha de copacabana", "location": {"lat": -22.983206547980586, "lng": -43.19392290126146, "labeledLatLngs": [{"label": "display", "lat": -22.983206547980586, "lng": -43.19392290126146}], "distance": 1528, "cc": "BR", "country": "Brasil"}, "categories": [{"id": "4bf58dd8d48988d16a941735", "name": "Bakery", "pluralName": "Bakeries", "shortName": "Bakery", "icon": {"prefix": "https://ss3.4sqi.net/img/categories_v2/food/bakery_", "suffix": ".png"}, "primary": true}], "referralId": "v-1619281278", "hasPerk": false}, {"id": "4d833db199b78cfa98a79b1f", "name": "Padaria e Confeitaria Mil\u00fa", "location": {"address": "R. Hadock Lobo, 155", "crossStreet": "R. do Matoso", "lat": -22.91802547336612, "lng": -43.211977626303494, "labeledLatLngs": [{"label": "display", "lat": -22.91802547336612, "lng": -43.211977626303494}], "distance": 5987, "postalCode": "20260-180", "cc": "BR", "city": "Rio de Janeiro", "state": "RJ", "country": "Brasil", "formattedAddress": ["R. Hadock Lobo, 155 (R. do Matoso)", "Rio de Janeiro, RJ", "20260-180"]}, "categories": [{"id": "4bf58dd8d48988d16a941735", "name": "Bakery", "pluralName": "Bakeries", "shortName": "Bakery", "icon": {"prefix": "https://ss3.4sqi.net/img/categories_v2/food/bakery_", "suffix": ".png"}, "primary": true}], "referralId": "v-1619281278", "hasPerk": false}, {"id": "4bdc6a21fed22d7fa30c58c9", "name": "Rosabella Padaria e Confeitaria", "location": {"address": "R. Pompeu Loureiro, 10", "lat": -22.97256924680614, "lng": -43.19196486480612, "labeledLatLngs": [{"label": "display", "lat": -22.97256924680614, "lng": -43.19196486480612}], "distance": 853, "postalCode": "22061-000", "cc": "BR", "city": "Rio de Janeiro", "state": "RJ", "country": "Brasil", "formattedAddress": ["R. Pompeu Loureiro, 10", "Rio de Janeiro, RJ", "22061-000"]}, "categories": [{"id": "4bf58dd8d48988d16a941735", "name": "Bakery", "pluralName": "Bakeries", "shortName": "Bakery", "icon": {"prefix": "https://ss3.4sqi.net/img/categories_v2/food/bakery_", "suffix": ".png"}, "primary": true}], "referralId": "v-1619281278", "hasPerk": false}, {"id": "4fbc00bfe4b0a02cb7b94cb3", "name": "Padaria Santo Ant\u00f4nio", "location": {"address": "Rua Ces\u00e1rio Alvim esquina c/ a Humait\u00e1", "lat": -22.954975145309415, "lng": -43.19774866104126, "labeledLatLngs": [{"label": "display", "lat": -22.954975145309415, "lng": -43.19774866104126}], "distance": 1763, "cc": "BR", "country": "Brasil", "formattedAddress": ["Rua Ces\u00e1rio Alvim esquina c/ a Humait\u00e1"]}, "categories": [{"id": "4bf58dd8d48988d16a941735", "name": "Bakery", "pluralName": "Bakeries", "shortName": "Bakery", "icon": {"prefix": "https://ss3.4sqi.net/img/categories_v2/food/bakery_", "suffix": ".png"}, "primary": true}], "referralId": "v-1619281278", "hasPerk": false}, {"id": "5b4fff7ac824ae002cc96972", "name": "Padaria Delli", "location": {"address": "BR Mania", "lat": -22.92313, "lng": -43.248604, "labeledLatLngs": [{"label": "display", "lat": -22.92313, "lng": -43.248604}], "distance": 7266, "postalCode": "20541-100", "cc": "BR", "city": "Rio de Janeiro", "state": "RJ", "country": "Brasil", "formattedAddress": ["BR Mania", "Rio de Janeiro, RJ", "20541-100"]}, "categories": [{"id": "4bf58dd8d48988d16a941735", "name": "Bakery", "pluralName": "Bakeries", "shortName": "Bakery", "icon": {"prefix": "https://ss3.4sqi.net/img/categories_v2/food/bakery_", "suffix": ".png"}, "primary": true}], "referralId": "v-1619281278", "hasPerk": false}, {"id": "4d132122f898b1f7bbc9dd81", "name": "Padaria Vitoria Regia", "location": {"address": "R. Jardim Bot\u00e2nico, 612", "lat": -22.961169980013416, "lng": -43.21703048582981, "labeledLatLngs": [{"label": "display", "lat": -22.961169980013416, "lng": -43.21703048582981}], "distance": 2038, "cc": "BR", "city": "Rio de Janeiro", "state": "RJ", "country": "Brasil", "formattedAddress": ["R. Jardim Bot\u00e2nico, 612", "Rio de Janeiro, RJ"]}, "categories": [{"id": "4bf58dd8d48988d143941735", "name": "Breakfast Spot", "pluralName": "Breakfast Spots", "shortName": "Breakfast", "icon": {"prefix": "https://ss3.4sqi.net/img/categories_v2/food/breakfast_", "suffix": ".png"}, "primary": true}], "referralId": "v-1619281278", "hasPerk": false}, {"id": "4c10c03d6b7e2d7f3e0d2835", "name": "Padaria Santo Antonio", "location": {"lat": -22.949642268621226, "lng": -43.191535172360254, "labeledLatLngs": [{"label": "display", "lat": -22.949642268621226, "lng": -43.191535172360254}], "distance": 2498, "cc": "BR", "country": "Brasil"}, "categories": [{"id": "4bf58dd8d48988d16a941735", "name": "Bakery", "pluralName": "Bakeries", "shortName": "Bakery", "icon": {"prefix": "https://ss3.4sqi.net/img/categories_v2/food/bakery_", "suffix": ".png"}, "primary": true}], "referralId": "v-1619281278", "hasPerk": false}, {"id": "4fb7cb99e4b0e6d29029e2d2", "name": "Padaria Express", "location": {"lat": -22.95738827311455, "lng": -43.177305742928255, "labeledLatLngs": [{"label": "display", "lat": -22.95738827311455, "lng": -43.177305742928255}], "distance": 2759, "cc": "BR", "country": "Brasil"}, "categories": [{"id": "4bf58dd8d48988d16d941735", "name": "Caf\u00e9", "pluralName": "Caf\u00e9s", "shortName": "Caf\u00e9", "icon": {"prefix": "https://ss3.4sqi.net/img/categories_v2/food/cafe_", "suffix": ".png"}, "primary": true}], "referralId": "v-1619281278", "hasPerk": false}, {"id": "50e410d2e4b0b93efd2d755c", "name": "Padaria e Confeitaria Praia Vermelha", "location": {"address": "Pra\u00e7a General Tiburcio,83 Loja 2", "lat": -22.962784971175502, "lng": -43.175763861802885, "labeledLatLngs": [{"label": "display", "lat": -22.962784971175502, "lng": -43.175763861802885}], "distance": 2638, "cc": "BR", "city": "Rio de Janeiro", "state": "RJ", "country": "Brasil", "formattedAddress": ["Pra\u00e7a General Tiburcio,83 Loja 2", "Rio de Janeiro, RJ"]}, "categories": [{"id": "4bf58dd8d48988d16a941735", "name": "Bakery", "pluralName": "Bakeries", "shortName": "Bakery", "icon": {"prefix": "https://ss3.4sqi.net/img/categories_v2/food/bakery_", "suffix": ".png"}, "primary": true}], "referralId": "v-1619281278", "hasPerk": false}, {"id": "508a5ee1e4b04ae58ec1f4e1", "name": "Padaria Atl\u00e2ntica", "location": {"address": "Rua Ministro Viveiros de Castro, 53", "crossStreet": "R. Belfort Roxo", "lat": -22.96384400939159, "lng": -43.17616125740015, "labeledLatLngs": [{"label": "display", "lat": -22.96384400939159, "lng": -43.17616125740015}], "distance": 2562, "postalCode": "22021-010", "cc": "BR", "city": "Rio de Janeiro", "state": "RJ", "country": "Brasil", "formattedAddress": ["Rua Ministro Viveiros de Castro, 53 (R. Belfort Roxo)", "Rio de Janeiro, RJ", "22021-010"]}, "categories": [{"id": "4bf58dd8d48988d16a941735", "name": "Bakery", "pluralName": "Bakeries", "shortName": "Bakery", "icon": {"prefix": "https://ss3.4sqi.net/img/categories_v2/food/bakery_", "suffix": ".png"}, "primary": true}], "referralId": "v-1619281278", "hasPerk": false}, {"id": "4be5d47b2468c928a59f0043", "name": "Trigus Padaria", "location": {"address": "R. Mariz e Barros, 470, Lj. A", "crossStreet": "R. Ibituruna", "lat": -22.914340236439394, "lng": -43.21904740183662, "labeledLatLngs": [{"label": "display", "lat": -22.914340236439394, "lng": -43.21904740183662}], "distance": 6567, "postalCode": "20270-001", "cc": "BR", "city": "Rio de Janeiro", "state": "RJ", "country": "Brasil", "formattedAddress": ["R. Mariz e Barros, 470, Lj. A (R. Ibituruna)", "Rio de Janeiro, RJ", "20270-001"]}, "categories": [{"id": "4bf58dd8d48988d16a941735", "name": "Bakery", "pluralName": "Bakeries", "shortName": "Bakery", "icon": {"prefix": "https://ss3.4sqi.net/img/categories_v2/food/bakery_", "suffix": ".png"}, "primary": true}], "referralId": "v-1619281278", "hasPerk": false}, {"id": "5afec3ddcd441c002c227350", "name": "Padaria Provencial", "location": {"address": "Rua Arnaldo Quintela", "crossStreet": "Rua Fernando Guimaraes", "lat": -22.95493, "lng": -43.182373, "labeledLatLngs": [{"label": "display", "lat": -22.95493, "lng": -43.182373}], "distance": 2519, "postalCode": "22280-070", "cc": "BR", "city": "Rio de Janeiro", "state": "RJ", "country": "Brasil", "formattedAddress": ["Rua Arnaldo Quintela (Rua Fernando Guimaraes)", "Rio de Janeiro, RJ", "22280-070"]}, "categories": [{"id": "4bf58dd8d48988d16a941735", "name": "Bakery", "pluralName": "Bakeries", "shortName": "Bakery", "icon": {"prefix": "https://ss3.4sqi.net/img/categories_v2/food/bakery_", "suffix": ".png"}, "primary": true}], "referralId": "v-1619281278", "hasPerk": false}, {"id": "4dd3bb1618384691b9afced8", "name": "Padaria Naziras X", "location": {"address": "Rua Paulo Barreto, 75", "crossStreet": "Rua Mena Barreto", "lat": -22.95468905697457, "lng": -43.186610366798895, "labeledLatLngs": [{"label": "display", "lat": -22.95468905697457, "lng": -43.186610366798895}], "distance": 2249, "postalCode": "22271-100", "cc": "BR", "city": "Rio de Janeiro", "state": "RJ", "country": "Brasil", "formattedAddress": ["Rua Paulo Barreto, 75 (Rua Mena Barreto)", "Rio de Janeiro, RJ", "22271-100"]}, "categories": [{"id": "4bf58dd8d48988d16a941735", "name": "Bakery", "pluralName": "Bakeries", "shortName": "Bakery", "icon": {"prefix": "https://ss3.4sqi.net/img/categories_v2/food/bakery_", "suffix": ".png"}, "primary": true}], "referralId": "v-1619281278", "hasPerk": false}, {"id": "4e551da17d8b96cd06157ed6", "name": "Nova S\u00e3o Luiz Padaria e Confeitaria", "location": {"address": "R. Tavares de Lira", "lat": -22.932188710561306, "lng": -43.179063919436, "labeledLatLngs": [{"label": "display", "lat": -22.932188710561306, "lng": -43.179063919436}], "distance": 4793, "cc": "BR", "city": "Rio de Janeiro", "state": "RJ", "country": "Brasil", "formattedAddress": ["R. Tavares de Lira", "Rio de Janeiro, RJ"]}, "categories": [{"id": "4bf58dd8d48988d16a941735", "name": "Bakery", "pluralName": "Bakeries", "shortName": "Bakery", "icon": {"prefix": "https://ss3.4sqi.net/img/categories_v2/food/bakery_", "suffix": ".png"}, "primary": true}], "referralId": "v-1619281278", "hasPerk": false}, {"id": "51b70ea5498eb126f598e2d4", "name": "Padaria Zona Sul", "location": {"lat": -22.975059866047285, "lng": -43.226266642992854, "labeledLatLngs": [{"label": "display", "lat": -22.975059866047285, "lng": -43.226266642992854}], "distance": 2732, "cc": "BR", "country": "Brasil"}, "categories": [{"id": "4bf58dd8d48988d16a941735", "name": "Bakery", "pluralName": "Bakeries", "shortName": "Bakery", "icon": {"prefix": "https://ss3.4sqi.net/img/categories_v2/food/bakery_", "suffix": ".png"}, "primary": true}], "referralId": "v-1619281278", "hasPerk": false}, {"id": "4d29a77b3c7954815eadd99b", "name": "Nossa Padaria", "location": {"lat": -22.975536, "lng": -43.187874, "labeledLatLngs": [{"label": "display", "lat": -22.975536, "lng": -43.187874}], "distance": 1358, "cc": "BR", "country": "Brasil"}, "categories": [{"id": "4bf58dd8d48988d16a941735", "name": "Bakery", "pluralName": "Bakeries", "shortName": "Bakery", "icon": {"prefix": "https://ss3.4sqi.net/img/categories_v2/food/bakery_", "suffix": ".png"}, "primary": true}], "referralId": "v-1619281278", "hasPerk": false}, {"id": "50df83c2e4b0e3d2be36a00b", "name": "Maria Angelica Padaria", "location": {"lat": -22.960917, "lng": -43.207841, "labeledLatLngs": [{"label": "display", "lat": -22.960917, "lng": -43.207841}], "distance": 1349, "cc": "BR", "country": "Brasil"}, "categories": [{"id": "4bf58dd8d48988d16a941735", "name": "Bakery", "pluralName": "Bakeries", "shortName": "Bakery", "icon": {"prefix": "https://ss3.4sqi.net/img/categories_v2/food/bakery_", "suffix": ".png"}, "primary": true}], "referralId": "v-1619281278", "hasPerk": false}, {"id": "4bdb4773383276b0b0ab7369", "name": "Copa Trigo Padaria", "location": {"address": "Barata Ribeiro", "crossStreet": "btw Constante Ramos & Dias da Rocha", "lat": -22.969470305946533, "lng": -43.186636427491365, "labeledLatLngs": [{"label": "display", "lat": -22.969470305946533, "lng": -43.186636427491365}], "distance": 1379, "cc": "BR", "city": "Rio de Janeiro", "state": "RJ", "country": "Brasil", "formattedAddress": ["Barata Ribeiro (btw Constante Ramos & Dias da Rocha)", "Rio de Janeiro, RJ"]}, "categories": [{"id": "4bf58dd8d48988d16a941735", "name": "Bakery", "pluralName": "Bakeries", "shortName": "Bakery", "icon": {"prefix": "https://ss3.4sqi.net/img/categories_v2/food/bakery_", "suffix": ".png"}, "primary": true}], "referralId": "v-1619281278", "hasPerk": false}]}}