{"meta": {"code": 200, "requestId": "6084457eb4b2d049d20629fa"}, "notifications": [{"type": "notificationTray", "item": {"unreadCount": 0}}], "response": {"venues": [{"id": "4bfd733c8992a5939b24acb0", "name": "Panificacao Anita", "location": {"address": "R Anita Garibaldi, 83 B", "lat": -22.968289134563175, "lng": -43.18875028413389, "labeledLatLngs": [{"label": "display", "lat": -22.968289134563175, "lng": -43.18875028413389}], "distance": 1186, "cc": "BR", "city": "Rio de Janeiro", "state": "RJ", "country": "Brasil", "formattedAddress": ["R Anita Garibaldi, 83 B", "Rio de Janeiro, RJ"]}, "categories": [{"id": "4bf58dd8d48988d16a941735", "name": "Bakery", "pluralName": "Bakeries", "shortName": "Bakery", "icon": {"prefix": "https://ss3.4sqi.net/img/categories_v2/food/bakery_", "suffix": ".png"}, "primary": true}], "referralId": "v-1619281278", "hasPerk": false}, {"id": "4bf53eeced30b713cb33f49a", "name": "Panifica\u00e7\u00e3o Rian", "location": {"address": "R. Domingos Ferreira, 210", "crossStreet": "R. Constante Ramos", "lat": -22.974587583468445, "lng": -43.188061074059206, "labeledLatLngs": [{"label": "display", "lat": -22.974587583468445, "lng": -43.188061074059206}], "distance": 1301, "postalCode": "22050-010", "cc": "BR", "city": "Rio de Janeiro", "state": "RJ", "country": "Brasil", "formattedAddress": ["R. Domingos Ferreira, 210 (R. Constante Ramos)", "Rio de Janeiro, RJ", "22050-010"]}, "categories": [{"id": "4bf58dd8d48988d16a941735", "name": "Bakery", "pluralName": "Bakeries", "shortName": "Bakery", "icon": {"prefix": "https://ss3.4sqi.net/img/categories_v2/food/bakery_", "suffix": ".png"}, "primary": true}], "referralId": "v-1619281278", "hasPerk": false}, {"id": "4bd76de30b779c744f2c05a0", "name": "Panifica\u00e7\u00e3o Uni\u00e3o", "location": {"address": "R. Humait\u00e1, 146/148", "crossStreet": "R. Maria Eug\u00eania", "lat": -22.958060239053168, "lng": -43.19952320294458, "labeledLatLngs": [{"label": "display", "lat": -22.958060239053168, "lng": -43.19952320294458}], "distance": 1405, "postalCode": "22261-001", "cc": "BR", "city": "Rio de Janeiro", "state": "RJ", "country": "Brasil", "formattedAddress": ["R. Humait\u00e1, 146/148 (R. Maria Eug\u00eania)", "Rio de Janeiro, RJ", "22261-001"]}, "categories": [{"id": "4bf58dd8d48988d16a941735", "name": "Bakery", "pluralName": "Bakeries", "shortName": "Bakery", "icon": {"prefix": "https://ss3.4sqi.net/img/categories_v2/food/bakery_", "suffix": ".png"}, "primary": true}], "referralId": "v-1619281278", "hasPerk": false}, {"id": "5162119ee4b0e6bf92d852a1", "name": "Panifica\u00e7\u00e3o Alian\u00e7a das Laranjeiras", "location": {"address": "R. das Laranjeiras, 366", "lat": -22.93644401917344, "lng": -43.18753488164236, "labeledLatLngs": [{"label": "display", "lat": -22.93644401917344, "lng": -43.18753488164236}], "distance": 4020, "postalCode": "22240-002", "cc": "BR", "city": "Rio de Janeiro", "state": "RJ", "country": "Brasil", "formattedAddress": ["R. das Laranjeiras, 366", "Rio de Janeiro, RJ", "22240-002"]}, "categories": [{"id": "4bf58dd8d48988d16a941735", "name": "Bakery", "pluralName": "Bakeries", "shortName": "Bakery", "icon": {"prefix": "https://ss3.4sqi.net/img/categories_v2/food/bakery_", "suffix": ".png"}, "primary": true}], "referralId": "v-1619281278", "hasPerk": false}, {"id": "4c68611a832bc928b316b4a8", "name": "Panifica\u00e7\u00e3o Lagoa", "location": {"address": "R. Jd. Bot\u00e2nico, 153", "lat": -22.9606419586819, "lng": -43.206986990041834, "labeledLatLngs": [{"label": "display", "lat": -22.9606419586819, "lng": -43.206986990041834}], "distance": 1325, "postalCode": "22470-050", "cc": "BR", "city": "Rio de Janeiro", "state": "RJ", "country": "Brasil", "formattedAddress": ["R. Jd. Bot\u00e2nico, 153", "Rio de Janeiro, RJ", "22470-050"]}, "categories": [{"id": "4bf58dd8d48988d16a941735", "name": "Bakery", "pluralName": "Bakeries", "shortName": "Bakery", "icon": {"prefix": "https://ss3.4sqi.net/img/categories_v2/food/bakery_", "suffix": ".png"}, "primary": true}], "referralId": "v-1619281278", "hasPerk": false}, {"id": "4d8529bf9324236a84c1c90e", "name": "Panifica\u00e7\u00e3o e Confeitaria Panorama", "location": {"address": "R. Nascimento Silva, 62- Ipanema", "crossStreet": "R. Farme de Amo\u00eado", "lat": -22.982180954797364, "lng": -43.200627524673656, "labeledLatLngs": [{"label": "display", "lat": -22.982180954797364, "lng": -43.200627524673656}], "distance": 1281, "postalCode": "24030-105", "cc": "BR", "city": "Rio de Janeiro", "state": "RJ", "country": "Brasil", "formattedAddress": ["R. Nascimento Silva, 62- Ipanema (R. Farme de Amo\u00eado)", "Rio de Janeiro, RJ", "24030-105"]}, "categories": [{"id": "4bf58dd8d48988d16a941735", "name": "Bakery", "pluralName": "Bakeries", "shortName": "Bakery", "icon": {"prefix": "https://ss3.4sqi.net/img/categories_v2/food/bakery_", "suffix": ".png"}, "primary": true}], "referralId": "v-1619281278", "hasPerk": false}, {"id": "5606664e498e62a8ffb8aae9", "name": "Panifica\u00e7\u00e3o Rio Parana", "location": {"lat": -22.978581, "lng": -43.189391, "labeledLatLngs": [{"label": "display", "lat": -22.978581, "lng": -43.189391}], "distance": 1401, "cc": "BR", "country": "Brasil"}, "categories": [{"id": "4bf58dd8d48988d143941735", "name": "Breakfast Spot", "pluralName": "Breakfast Spots", "shortName": "Breakfast", "icon": {"prefix": "https://ss3.4sqi.net/img/categories_v2/food/breakfast_", "suffix": ".png"}, "primary": true}], "referralId": "v-1619281278", "hasPerk": false}, {"id": "4c34df8ced37a593d8a26f03", "name": "Panifica\u00e7\u00e3o Volunt\u00e1rios", "location": {"address": "R. Volunt\u00e1rios da P\u00e1tria, 201", "crossStreet": "R. D. Mariana", "lat": -22.952911194500622, "lng": -43.18858694801054, "labeledLatLngs": [{"label": "display", "lat": -22.952911194500622, "lng": -43.18858694801054}], "distance": 2299, "postalCode": "22270-000", "cc": "BR", "city": "Rio de Janeiro", "state": "RJ", "country": "Brasil", "formattedAddress": ["R. Volunt\u00e1rios da P\u00e1tria, 201 (R. D. Mariana)", "Rio de Janeiro, RJ", "22270-000"]}, "categories": [{"id": "4bf58dd8d48988d16a941735", "name": "Bakery", "pluralName": "Bakeries", "shortName": "Bakery", "icon": {"prefix": "https://ss3.4sqi.net/img/categories_v2/food/bakery_", "suffix": ".png"}, "primary": true}], "referralId": "v-1619281278", "hasPerk": false}, {"id": "4ee87ca28231d71b39cb9d73", "name": "Panifica\u00e7\u00e3o e Confeitaria Salete", "location": {"address": "R. do Catumbi, 34", "lat": -22.914989583278984, "lng": -43.19594962383133, "labeledLatLngs": [{"label": "display", "lat": -22.914989583278984, "lng": -43.19594962383133}], "distance": 6213, "postalCode": "20251-440", "cc": "BR", "city": "Rio de Janeiro", "state": "RJ", "country": "Brasil", "formattedAddress": ["R. do Catumbi, 34", "Rio de Janeiro, RJ", "20251-440"]}, "categories": [{"id": "4bf58dd8d48988d16a941735", "name": "Bakery", "pluralName": "Bakeries", "shortName": "Bakery", "icon": {"prefix": "https://ss3.4sqi.net/img/categories_v2/food/bakery_", "suffix": ".png"}, "primary": true}], "referralId": "v-1619281278", "hasPerk": false}, {"id": "4bb285112397b713c22337b3", "name": "Panifica\u00e7\u00e3o e Confeitaria Atl\u00e2ntica", "location": {"address": "R. Min. Viveiros de Castro 53", "crossStreet": "R. Belfort Roxo", "lat": -22.963892841664965, "lng": -43.17614333333664, "labeledLatLngs": [{"label": "display", "lat": -22.963892841664965, "lng": -43.17614333333664}], "distance": 2562, "postalCode": "22021-010", "cc": "BR", "city": "Rio de Janeiro", "state": "RJ", "country": "Brasil", "formattedAddress": ["R. Min. Viveiros de Castro 53 (R. Belfort Roxo)", "Rio de Janeiro, RJ", "22021-010"]}, "categories": [{"id": "4bf58dd8d48988d16a941735", "name": "Bakery", "pluralName": "Bakeries", "shortName": "Bakery", "icon": {"prefix": "https://ss3.4sqi.net/img/categories_v2/food/bakery_", "suffix": ".png"}, "primary": true}], "referralId": "v-1619281278", "hasPerk": false}, {"id": "4cbb851c035d236aa4abe04e", "name": "Panifica\u00e7\u00e3o S\u00e9culo XX", "location": {"address": "R. Pacheco Le\u00e3o, 320, Ljs. A/B", "lat": -22.965279081795423, "lng": -43.22244075553899, "labeledLatLngs": [{"label": "display", "lat": -22.965279081795423, "lng": -43.22244075553899}], "distance": 2374, "postalCode": "22460-030", "cc": "BR", "city": "Rio de Janeiro", "state": "RJ", "country": "Brasil", "formattedAddress": ["R. Pacheco Le\u00e3o, 320, Ljs. A/B", "Rio de Janeiro, RJ", "22460-030"]}, "categories": [{"id": "4bf58dd8d48988d16a941735", "name": "Bakery", "pluralName": "Bakeries", "shortName": "Bakery", "icon": {"prefix": "https://ss3.4sqi.net/img/categories_v2/food/bakery_", "suffix": ".png"}, "primary": true}], "referralId": "v-1619281278", "hasPerk": false}, {"id": "4c501586dcb5d13a37136308", "name": "Panifica\u00e7\u00e3o e Confeitaria Tupan", "location": {"address": "Av. Nossa Senhora de Copacabana, 1375", "lat": -22.985302546003624, "lng": -43.190208775460825, "labeledLatLngs": [{"label": "display", "lat": -22.985302546003624, "lng": -43.190208775460825}], "distance": 1914, "cc": "BR", "city": "Rio de Janeiro", "state": "RJ", "country": "Brasil", "formattedAddress": ["Av. Nossa Senhora de Copacabana, 1375", "Rio de Janeiro, RJ"]}, "categories": [{"id": "4bf58dd8d48988d16a941735", "name": "Bakery", "pluralName": "Bakeries", "shortName": "Bakery", "icon": {"prefix": "https://ss3.4sqi.net/img/categories_v2/food/bakery_", "suffix": ".png"}, "primary": true}], "referralId": "v-1619281278", "hasPerk": false}, {"id": "4f972ad3e4b0e1b635ce76bd", "name": "Ponto de \u00f4nibus em frente panifica\u00e7\u00e3o Lagoa", "location": {"lat": -22.960418, "lng": -43.206969, "labeledLatLngs": [{"label": "display", "lat": -22.960418, "lng": -43.206969}], "distance": 1345, "cc": "BR", "country": "Brasil"}, "categories": [{"id": "4bf58dd8d48988d1fe931735", "name": "Bus Station", "pluralName": "Bus Stations", "shortName": "Bus Station", "icon": {"prefix": "https://ss3.4sqi.net/img/categories_v2/travel/busstation_", "suffix": ".png"}, "primary": true}], "referralId": "v-1619281278", "hasPerk": false}, {"id": "4be1a67442e8c928d1823406", "name": "Panifica\u00e7\u00e3o Urca", "location": {"address": "R. Mal. Cantu\u00e1ria, 16-A", "lat": -22.950475427775636, "lng": -43.16762369401798, "labeledLatLngs": [{"label": "display", "lat": -22.950475427775636, "lng": -43.16762369401798}], "distance": 4011, "postalCode": "22291-060", "cc": "BR", "city": "Rio de Janeiro", "state": "RJ", "country": "Brasil", "formattedAddress": ["R. Mal. Cantu\u00e1ria, 16-A", "Rio de Janeiro, RJ", "22291-060"]}, "categories": [{"id": "4bf58dd8d48988d16a941735", "name": "Bakery", "pluralName": "Bakeries", "shortName": "Bakery", "icon": {"prefix": "https://ss3.4sqi.net/img/categories_v2/food/bakery_", "suffix": ".png"}, "primary": true}], "referralId": "v-1619281278", "hasPerk": false}, {"id": "50d85a55e4b0db4f40cedb60", "name": "panifica\u00e7ao industrial e confeitaria", "location": {"address": "Rua S\u00e3o Clemente, 39", "lat": -22.949510863337455, "lng": -43.18412067058554, "labeledLatLngs": [{"label": "display", "lat": -22.949510863337455, "lng": -43.18412067058554}], "distance": 2865, "cc": "BR", "country": "Brasil", "formattedAddress": ["Rua S\u00e3o Clemente, 39"]}, "categories": [{"id": "4bf58dd8d48988d16a941735", "name": "Bakery", "pluralName": "Bakeries", "shortName": "Bakery", "icon": {"prefix": "https://ss3.4sqi.net/img/categories_v2/food/bakery_", "suffix": ".png"}, "primary": true}], "referralId": "v-1619281278", "hasPerk": false}, {"id": "514c5f43e4b04a876566aa70", "name": "STINPAN/RJ- Sindicato Panifica\u00e7\u00e3o e Confeitaria do Rio de Janeiro", "location": {"address": "Rua Gon\u00e7alves Crespo, 261", "lat": -22.915175178620316, "lng": -43.216669202502345, "labeledLatLngs": [{"label": "display", "lat": -22.915175178620316, "lng": -43.216669202502345}], "distance": 6409, "postalCode": "20270-320", "cc": "BR", "city": "Rio de Janeiro", "state": "RJ", "country": "Brasil", "formattedAddress": ["Rua Gon\u00e7alves Crespo, 261", "Rio de Janeiro, RJ", "20270-320"]}, "categories": [{"id": "4bf58dd8d48988d124941735", "name": "Office", "pluralName": "Offices", "shortName": "Office", "icon": {"prefix": "https://ss3.4sqi.net/img/categories_v2/building/default_", "suffix": ".png"}, "primary": true}], "venuePage": {"id": "132171609"}, "referralId": "v-1619281278", "hasPerk": false}, {"id": "4d244eb375526dcb4f9c08a9", "name": "Panifica\u00e7\u00e3o Rainha", "location": {"address": "Rua Cosme Velho, 362", "lat": -22.93982997018035, "lng": -43.19701794600317, "labeledLatLngs": [{"label": "display", "lat": -22.93982997018035, "lng": -43.19701794600317}], "distance": 3447, "cc": "BR", "city": "Rio de Janeiro", "state": "RJ", "country": "Brasil", "formattedAddress": ["Rua Cosme Velho, 362", "Rio de Janeiro, RJ"]}, "categories": [{"id": "4bf58dd8d48988d16a941735", "name": "Bakery", "pluralName": "Bakeries", "shortName": "Bakery", "icon": {"prefix": "https://ss3.4sqi.net/img/categories_v2/food/bakery_", "suffix": ".png"}, "primary": true}], "referralId": "v-1619281278", "hasPerk": false}, {"id": "4e393675d22dea80c52da253", "name": "Panifica\u00e7\u00e3o Paissandu", "location": {"address": "Rua Paissandu", "lat": -22.935153996171948, "lng": -43.17874589290184, "labeledLatLngs": [{"label": "display", "lat": -22.935153996171948, "lng": -43.17874589290184}], "distance": 4516, "cc": "BR", "city": "Rio de Janeiro", "state": "RJ", "country": "Brasil", "formattedAddress": ["Rua Paissandu", "Rio de Janeiro, RJ"]}, "categories": [{"id": "4bf58dd8d48988d16a941735", "name": "Bakery", "pluralName": "Bakeries", "shortName": "Bakery", "icon": {"prefix": "https://ss3.4sqi.net/img/categories_v2/food/bakery_", "suffix": ".png"}, "primary": true}], "referralId": "v-1619281278", "hasPerk": false}, {"id": "4ef5b3de8231c111550887ad", "name": "Panifica\u00e7\u00e3o Danubio Azul", "location": {"address": "R. da Gl\u00f3ria, 228 - Gl\u00f3ria, Rio de Janeiro - RJ, 20241-180", "lat": -22.919770254420232, "lng": -43.177565871594865, "labeledLatLngs": [{"label": "display", "lat": -22.919770254420232, "lng": -43.177565871594865}], "distance": 6117, "postalCode": "20241-180", "cc": "BR", "city": "Rio de Janeiro", "state": "RJ", "country": "Brasil", "formattedAddress": ["R. da Gl\u00f3ria, 228 - Gl\u00f3ria, Rio de Janeiro - RJ, 20241-180", "Rio de Janeiro, RJ", "20241-180"]}, "categories": [{"id": "4bf58dd8d48988d16a941735", "name": "Bakery", "pluralName": "Bakeries", "shortName": "Bakery", "icon": {"prefix": "https://ss3.4sqi.net/img/categories_v2/food/bakery_", "suffix": ".png"}, "primary": true}], "referralId": "v-1619281278", "hasPerk": false}, {"id": "569bb2dc498e5a25c2871ef1", "name": "Panifica\u00e7\u00e3o e Confeitaria Flamengo", "location": {"address": "R. Pedro Am\u00e9rico, 262", "lat": -22.924990846233495, "lng": -43.17916918045104, "labeledLatLngs": [{"label": "display", "lat": -22.924990846233495, "lng": -43.17916918045104}], "distance": 5517, "postalCode": "22211-200", "cc": "BR", "city": "Rio de Janeiro", "state": "RJ", "country": "Brasil", "formattedAddress": ["R. Pedro Am\u00e9rico, 262", "Rio de Janeiro, RJ", "22211-200"]}, "categories": [{"id": "4bf58dd8d48988d16a941735", "name": "Bakery", "pluralName": "Bakeries", "shortName": "Bakery", "icon": {"prefix": "https://ss3.4sqi.net/img/categories_v2/food/bakery_", "suffix": ".png"}, "primary": true}], "referralId": "v-1619281278", "hasPerk": false}, {"id": "5267cbc411d2fb8492aed0cd", "name": "Panifica\u00e7\u00e3o Flores", "location": {"address": "Rua Gomes Freire, 189", "lat": -22.915105543180463, "lng": -43.18439495093866, "labeledLatLngs": [{"label": "display", "lat": -22.915105543180463, "lng": -43.18439495093866}], "distance": 6390, "cc": "BR", "city": "Rio de Janeiro", "state": "RJ", "country": "Brasil", "formattedAddress": ["Rua Gomes Freire, 189", "Rio de Janeiro, RJ"]}, "categories": [{"id": "4bf58dd8d48988d16a941735", "name": "Bakery", "pluralName": "Bakeries", "shortName": "Bakery", "icon": {"prefix": "https://ss3.4sqi.net/img/categories_v2/food/bakery_", "suffix": ".png"}, "primary": true}], "referralId": "v-1619281278", "hasPerk": false}, {"id": "51e03f5b498e6469d53ab6d3", "name": "Panifica\u00e7\u00e3o Tr\u00eas Gra\u00e7as", "location": {"lat": -22.911912185633188, "lng": -43.19255174405415, "labeledLatLngs": [{"label": "display", "lat": -22.911912185633188, "lng": -43.19255174405415}], "distance": 6586, "cc": "BR", "country": "Brasil"}, "categories": [{"id": "4bf58dd8d48988d16a941735", "name": "Bakery", "pluralName": "Bakeries", "shortName": "Bakery", "icon": {"prefix": "https://ss3.4sqi.net/img/categories_v2/food/bakery_", "suffix": ".png"}, "primary": true}], "referralId": "v-1619281278", "hasPerk": false}, {"id": "4dbea1370437955ec0691349", "name": "Panifica\u00e7\u00e3o S\u00e3o Francisco Xavier", "location": {"lat": -22.91537337052472, "lng": -43.2323347298134, "labeledLatLngs": [{"label": "display", "lat": -22.91537337052472, "lng": -43.2323347298134}], "distance": 6990, "cc": "BR", "city": "Rio de Janeiro", "state": "RJ", "country": "Brasil", "formattedAddress": ["Rio de Janeiro, RJ"]}, "categories": [{"id": "4bf58dd8d48988d16a941735", "name": "Bakery", "pluralName": "Bakeries", "shortName": "Bakery", "icon": {"prefix": "https://ss3.4sqi.net/img/categories_v2/food/bakery_", "suffix": ".png"}, "primary": true}], "referralId": "v-1619281278", "hasPerk": false}, {"id": "5a9d5310d1a40244fc3ae768", "name": "Panifica\u00e7\u00e3o Matosinhos", "location": {"address": "Rua Sr. de Matosinhos", "lat": -22.913286, "lng": -43.199528, "labeledLatLngs": [{"label": "display", "lat": -22.913286, "lng": -43.199528}], "distance": 6389, "postalCode": "20211-070", "cc": "BR", "neighborhood": "Cidade Nova", "city": "Rio de Janeiro", "state": "RJ", "country": "Brasil", "formattedAddress": ["Rua Sr. de Matosinhos", "Rio de Janeiro, RJ", "20211-070"]}, "categories": [{"id": "4bf58dd8d48988d16a941735", "name": "Bakery", "pluralName": "Bakeries", "shortName": "Bakery", "icon": {"prefix": "https://ss3.4sqi.net/img/categories_v2/food/bakery_", "suffix": ".png"}, "primary": true}], "referralId": "v-1619281278", "hasPerk": false}, {"id": "4de41af0d4c070440593fd1b", "name": "Panifica\u00e7\u00e3o Flamengo", "location": {"address": "Rua Pedro Am\u00e9rico, 262", "crossStreet": "Rua Bento Lisboa", "lat": -22.92451342773881, "lng": -43.178175786402214, "labeledLatLngs": [{"label": "display", "lat": -22.92451342773881, "lng": -43.178175786402214}], "distance": 5606, "cc": "BR", "city": "Rio de Janeiro", "state": "RJ", "country": "Brasil", "formattedAddress": ["Rua Pedro Am\u00e9rico, 262 (Rua Bento Lisboa)", "Rio de Janeiro, RJ"]}, "categories": [{"id": "4bf58dd8d48988d16a941735", "name": "Bakery", "pluralName": "Bakeries", "shortName": "Bakery", "icon": {"prefix": "https://ss3.4sqi.net/img/categories_v2/food/bakery_", "suffix": ".png"}, "primary": true}], "referralId": "v-1619281278", "hasPerk": false}, {"id": "4c9c7b5e9c48236a31214eee", "name": "Panifica\u00e7\u00e3o Alvorada", "location": {"address": "R. General Canabarro, 202", "lat": -22.914726692556666, "lng": -43.22614007962626, "labeledLatLngs": [{"label": "display", "lat": -22.914726692556666, "lng": -43.22614007962626}], "distance": 6779, "cc": "BR", "city": "Rio de Janeiro", "state": "RJ", "country": "Brasil", "formattedAddress": ["R. General Canabarro, 202", "Rio de Janeiro, RJ"]}, "categories": [{"id": "4bf58dd8d48988d16a941735", "name": "Bakery", "pluralName": "Bakeries", "shortName": "Bakery", "icon": {"prefix": "https://ss3.4sqi.net/img/categories_v2/food/bakery_", "suffix": ".png"}, "primary": true}], "referralId": "v-1619281278", "hasPerk": false}, {"id": "5665a39a498efd506f2a1a0f", "name": "Panifica\u00e7\u00e3o Maria Jos\u00e9 de Afonso Pena Ltda", "location": {"address": "Rua Afonso Pena, 97 Loja A", "lat": -22.91767048504527, "lng": -43.218839623799276, "labeledLatLngs": [{"label": "display", "lat": -22.91767048504527, "lng": -43.218839623799276}], "distance": 6207, "cc": "BR", "city": "Rio de Janeiro", "state": "RJ", "country": "Brasil", "formattedAddress": ["Rua Afonso Pena, 97 Loja A", "Rio de Janeiro, RJ"]}, "categories": [{"id": "4bf58dd8d48988d16a941735", "name": "Bakery", "pluralName": "Bakeries", "shortName": "Bakery", "icon": {"prefix": "https://ss3.4sqi.net/img/categories_v2/food/bakery_", "suffix": ".png"}, "primary": true}], "referralId": "v-1619281278", "hasPerk": false}, {"id": "4bf2c114a32e20a1ae91d557", "name": "Flor de Copacabana", "location": {"address": "R. Barata Ribeiro, 652", "lat": -22.973146163607346, "lng": -43.190939700003135, "labeledLatLngs": [{"label": "display", "lat": -22.973146163607346, "lng": -43.190939700003135}], "distance": 971, "postalCode": "22051-000", "cc": "BR", "city": "Rio de Janeiro", "state": "RJ", "country": "Brasil", "formattedAddress": ["R. Barata Ribeiro, 652", "Rio de Janeiro, RJ", "22051-000"]}, "categories": [{"id": "4bf58dd8d48988d16a941735", "name": "Bakery", "pluralName": "Bakeries", "shortName": "Bakery", "icon": {"prefix": "https://ss3.4sqi.net/img/categories_v2/food/bakery_", "suffix": ".png"}, "primary": true}], "referralId": "v-1619281278", "hasPerk": false}, {"id": "4b058727f964a520878222e3", "name": "Cereal Panifica\u00e7\u00e3o Artesanal", "location": {"address": "R. Alm. Alexandrino, 3283", "lat": -22.93266174215812, "lng": -43.198090404399466, "labeledLatLngs": [{"label": "display", "lat": -22.93266174215812, "lng": -43.198090404399466}], "distance": 4236, "postalCode": "20241-265", "cc": "BR", "city": "Rio de Janeiro", "state": "RJ", "country": "Brasil", "formattedAddress": ["R. Alm. Alexandrino, 3283", "Rio de Janeiro, RJ", "20241-265"]}, "categories": [{"id": "4bf58dd8d48988d143941735", "name": "Breakfast Spot", "pluralName": "Breakfast Spots", "shortName": "Breakfast", "icon": {"prefix": "https://ss3.4sqi.net/img/categories_v2/food/breakfast_", "suffix": ".png"}, "primary": true}], "referralId": "v-1619281278", "hasPerk": false}, {"id": "4f7ca4b2e4b0d1da890a6803", "name": "Sindicato das Industrias de Panificacao", "location": {"address": "Rua Itapiru 1443", "lat": -22.924777627766638, "lng": -43.203813039095216, "labeledLatLngs": [{"label": "display", "lat": -22.924777627766638, "lng": -43.203813039095216}], "distance": 5124, "cc": "BR", "city": "Rio de Janeiro", "state": "RJ", "country": "Brasil", "formattedAddress": ["Rua Itapiru 1443", "Rio de Janeiro, RJ"]}, "categories": [{"id": "4bf58dd8d48988d130941735", "name": "Building", "pluralName": "Buildings", "shortName": "Building", "icon": {"prefix": "https://ss3.4sqi.net/img/categories_v2/building/default_", "suffix": ".png"}, "primary": true}], "referralId": "v-1619281278", "hasPerk": false}, {"id": "51e7cf16498e88c30209da86", "name": "Salete Panifica\u00e7\u00e3o e Confeitaria", "location": {"lat": -22.913134063699818, "lng": -43.19961044077239, "labeledLatLngs": [{"label": "display", "lat": -22.913134063699818, "lng": -43.19961044077239}], "distance": 6406, "cc": "BR", "city": "Rio de Janeiro", "state": "RJ", "country": "Brasil", "formattedAddress": ["Rio de Janeiro, RJ"]}, "categories": [{"id": "4bf58dd8d48988d16a941735", "name": "Bakery", "pluralName": "Bakeries", "shortName": "Bakery", "icon": {"prefix": "https://ss3.4sqi.net/img/categories_v2/food/bakery_", "suffix": ".png"}, "primary": true}], "referralId": "v-1619281278", "hasPerk": false}]}}